{"type":"FeatureCollection","features":[{"type": "Feature", "geometry": {"type": "Point", "coordinates": [-123.114069374134, 49.277427325294]}, "properties": {"status": "open", "description": "Hot Dogs", "geo_localarea": "Downtown", "location": "East Side of 800 Beatty St - 6 Metres South of Robson St", "key": "DT48", "vendor_type": "vendor_food"}},{"type": "Feature", "geometry": {"type": "Point", "coordinates": [-123.142926123068, 49.28449251733]}, "properties": {"status": "open", "description": "Hot Dogs", "geo_localarea": "West End", "location": "South Side of 1700 Beach Ave - East Side of Bidwell St", "key": "EB04", "vendor_type": "vendor_food"}},{"type": "Feature", "geometry": {"type": "Point", "coordinates": [-123.122779848109, 49.2747502295582]}, "properties": {"status": "open", "description": "Hot Dogs", "geo_localarea": "Downtown", "location": "South Side of 300 Davie St - 6 Metres East of Hamilton St", "key": "DT21", "vendor_type": "vendor_food"}},{"type": "Feature", "geometry": {"type": "Point", "coordinates": [-123.069072741187, 49.2622160476583]}, "properties": {"status": "open", "description": "Hot Dogs", "geo_localarea": "Kensington-Cedar Cottage", "location": "South Side of 1700 East Broadway - 37 Metres East of Commercial Dr", "key": "OD05", "vendor_type": "vendor_food"}},{"type": "Feature", "geometry": {"type": "Point", "coordinates": [-123.108008079327, 49.2787930537543]}, "properties": {"status": "open", "description": "Hot Dogs", "geo_localarea": "Downtown", "location": "Expo Boulevard - 20 Metres West of Abbott St", "key": "DT10", "vendor_type": "vendor_food"}},{"type": "Feature", "geometry": {"type": "Point", "coordinates": [-123.116782, 49.286949]}, "properties": {"status": "open", "description": "Japanese Cuisine", "geo_localarea": "Downtown", "location": "South Side of 900 W Hastings - 10 metres East of Burrard St", "key": "DT61", "business_name": "Actual Oden", "vendor_type": "vendor_food"}},{"type": "Feature", "geometry": {"type": "Point", "coordinates": [-123.113567537336, 49.2865282200574]}, "properties": {"status": "open", "description": "Mexican Cuisine", "geo_localarea": "Downtown", "location": "North Side of 700 W Cordova St - 14 metres East of Howe St", "key": "DT57", "business_name": "Arturo's Mexico To Go", "vendor_type": "vendor_food"}},{"type": "Feature", "geometry": {"type": "Point", "coordinates": [-123.118192426382, 49.2869519782249]}, "properties": {"status": "open", "description": "Australian Pies", "geo_localarea": "Downtown", "location": "Authorised Parking Meter - 1000 W Pender St", "key": "C18", "business_name": "Aussie Pie Guy", "vendor_type": "vendor_food"}},{"type": "Feature", "geometry": {"type": "Point", "coordinates": [-123.12034, 49.281785]}, "properties": {"status": "open", "description": "Kebabs", "geo_localarea": "Downtown", "location": "North Side of 700 Robson St - 50 Metres West of Granville St", "key": "DT40", "business_name": "Cazba Express", "vendor_type": "vendor_food"}},{"type": "Feature", "geometry": {"type": "Point", "coordinates": [-123.115773447168, 49.287612530414]}, "properties": {"status": "open", "description": "Vegetarian", "geo_localarea": "Downtown", "location": "Authorised Parking Meter - North Side of W Cordova St", "key": "C12", "business_name": "Chickpea", "vendor_type": "vendor_food"}},{"type": "Feature", "geometry": {"type": "Point", "coordinates": [-123.106627254804, 49.2839897490076]}, "properties": {"status": "open", "description": "French Crepes", "geo_localarea": "Downtown", "location": "North Side of 100 Water St - 10 Metres West of Abbott St", "key": "GT02", "business_name": "Chou Chou Crepes", "vendor_type": "vendor_food"}},{"type": "Feature", "geometry": {"type": "Point", "coordinates": [-123.119288, 49.287838]}, "properties": {"status": "open", "description": "Venezuelan Cuisine", "geo_localarea": "Downtown", "location": "Authorised Parking Meter - 1000 W Hastings St", "key": "C21", "business_name": "Come Arepa", "vendor_type": "vendor_food"}},{"type": "Feature", "geometry": {"type": "Point", "coordinates": [-123.135271203846, 49.2912416908619]}, "properties": {"status": "open", "description": "Greek Cuisine", "geo_localarea": "West End", "location": "South Side of 1700 Robson St - 10 Metres East of Denman St", "key": "DT71", "business_name": "Didi's Greek", "vendor_type": "vendor_food"}},{"type": "Feature", "geometry": {"type": "Point", "coordinates": [-123.121388, 49.282313]}, "properties": {"status": "open", "description": "Wraps and Sandwiches", "geo_localarea": "Downtown", "location": "South Side of 800 Robson St - 28 Metres East of Hornby St", "key": "DT75", "business_name": "Eat Chicken Wraps", "vendor_type": "vendor_food"}},{"type": "Feature", "geometry": {"type": "Point", "coordinates": [-123.124511374389, 49.2820545294215]}, "properties": {"status": "open", "description": "Comfort Food", "geo_localarea": "Downtown", "location": "Authorised Parking Meter East Side of 900 Burrard St", "key": "C8", "business_name": "Gourmet Syndicate", "vendor_type": "vendor_food"}},{"type": "Feature", "geometry": {"type": "Point", "coordinates": [-123.117884, 49.286363]}, "properties": {"status": "open", "description": "Hot Dogs", "geo_localarea": "Downtown", "location": "East Side of 500 Burrard St - 6 Metres South of West Pender St", "key": "DT26", "business_name": "Japadog", "vendor_type": "vendor_food"}},{"type": "Feature", "geometry": {"type": "Point", "coordinates": [-123.12561890857, 49.2865915482477]}, "properties": {"status": "open", "description": "Chinese Cuisine", "geo_localarea": "West End", "location": "Authorised Parking Meter North Side of Alberni St - East of Bute St", "key": "C17", "business_name": "Le Tigre", "vendor_type": "vendor_food"}},{"type": "Feature", "geometry": {"type": "Point", "coordinates": [-123.142526485066, 49.2875878236052]}, "properties": {"status": "open", "description": "Hot Dogs", "geo_localarea": "West End", "location": "South Side of 1800 Beach Av - West of Davie St", "key": "EB07", "business_name": "Mac BBQ", "vendor_type": "vendor_food"}},{"type": "Feature", "geometry": {"type": "Point", "coordinates": [-123.117633, 49.284218]}, "properties": {"status": "open", "description": "Japanese Cuisine", "geo_localarea": "Downtown", "location": "West Side of Howe St - South of Dunsmuir St", "key": "DT16", "business_name": "Mogu", "vendor_type": "vendor_food"}},{"type": "Feature", "geometry": {"type": "Point", "coordinates": [-123.119039, 49.281957]}, "properties": {"status": "open", "description": "Italian Cuisine", "geo_localarea": "Downtown", "location": "West Side of Granville St - 75 Metres North of Robson St", "key": "DT67", "business_name": "Mr. Arancino", "vendor_type": "vendor_food"}},{"type": "Feature", "geometry": {"type": "Point", "coordinates": [-123.118453808195, 49.2825423250662]}, "properties": {"status": "open", "description": "Sandwiches", "geo_localarea": "Downtown", "location": "South Side of 700 W Georgia St - 20 Metres West of Granville St", "key": "GM15", "business_name": "Mr. Sandwich", "vendor_type": "vendor_food"}},{"type": "Feature", "geometry": {"type": "Point", "coordinates": [-123.12148094657, 49.2825844484842]}, "properties": {"status": "open", "description": "Shawarma", "geo_localarea": "Downtown", "location": "North Side of 800 Robson St - East of Hornby St", "key": "DT58", "business_name": "Mr. Shawarma", "vendor_type": "vendor_food"}},{"type": "Feature", "geometry": {"type": "Point", "coordinates": [-123.128965, 49.279378]}, "properties": {"status": "open", "description": "Potato Based Dishes", "geo_localarea": "West End", "location": "West Side of 1100 Burrard St - 10 Metres North of Davie St", "key": "DT35", "business_name": "Russett Shack", "vendor_type": "vendor_food"}},{"type": "Feature", "geometry": {"type": "Point", "coordinates": [-123.123682322296, 49.2910821453032]}, "properties": {"status": "open", "description": "Hot Dogs", "geo_localarea": "Downtown", "location": "Coal Harbour Seawall  - 200 Metres Northeast of Broughton St", "key": "DT56", "business_name": "Sea Dogs", "vendor_type": "vendor_food"}},{"type": "Feature", "geometry": {"type": "Point", "coordinates": [-123.111358832752, 49.2851739115674]}, "properties": {"status": "open", "description": "Hot Dogs", "geo_localarea": "Downtown", "location": "North Side of 500 W Cordova St - 59 Metres West of Richards St", "key": "DT32", "business_name": "Tandoori Tikka Dog", "vendor_type": "vendor_food"}},{"type": "Feature", "geometry": {"type": "Point", "coordinates": [-123.121519625651, 49.2738358886872]}, "properties": {"status": "open", "description": "Vegetarian and Vegan", "geo_localarea": "Downtown", "location": "East Side of 1200 Pacific Boulevard - 10 Metres South of Davie St", "key": "DT72", "business_name": "The Loving Hut", "vendor_type": "vendor_food"}},{"type": "Feature", "geometry": {"type": "Point", "coordinates": [-123.119509851201, 49.2728501609174]}, "properties": {"status": "open", "description": "Hot Dogs", "geo_localarea": "Downtown", "location": "Foot of Davie St - 2 Metres South of Marinaside Cres.", "key": "DT47", "business_name": "V Dub Dogs", "vendor_type": "vendor_food"}},{"type": "Feature", "geometry": {"type": "Point", "coordinates": [-123.122541268298, 49.2854937288055]}, "properties": {"status": "open", "description": "Indian Cuisine", "geo_localarea": "Downtown", "location": "Authorised Parking Meter North Side of 1000 W Georgia St", "key": "C24", "business_name": "Vij's Railway Express", "vendor_type": "vendor_food"}},{"type": "Feature", "geometry": {"type": "Point", "coordinates": [-123.114194279397, 49.2797972582368]}, "properties": {"status": "open", "description": "Hot Dogs", "geo_localarea": "Downtown", "location": "South Side of 200 West Georgia St - 8 Metres East of Hamilton St", "key": "DT73", "business_name": "Tandoori Tikka Dog", "vendor_type": "vendor_food"}},{"type": "Feature", "geometry": {"type": "Point", "coordinates": [-123.122119558315, 49.2797455146803]}, "properties": {"status": "open", "description": "Hot Dogs", "geo_localarea": "Downtown", "location": "East Side of 900 Granville St - 75 Metres South of Smithe St", "key": "GM11", "business_name": "Van Dog", "vendor_type": "vendor_food"}},{"type": "Feature", "geometry": {"type": "Point", "coordinates": [-123.117533501725, 49.2869026428645]}, "properties": {"status": "open", "description": "Italian Cuisine", "geo_localarea": "Downtown", "location": "Authorised Parking Meter - West Side of 400 Burrard St", "key": "C1", "business_name": "Vie Niapolotan", "vendor_type": "vendor_food"}},{"type": "Feature", "geometry": {"type": "Point", "coordinates": [-123.115175231669, 49.2845221170008]}, "properties": {"status": "open", "description": "Burgers and Fries", "geo_localarea": "Downtown", "location": "West Side of 500 Granville St - 10 Metres South of West Pender St", "key": "DT31", "business_name": "Yokabai", "vendor_type": "vendor_food"}},{"type": "Feature", "geometry": {"type": "Point", "coordinates": [-123.120951896798, 49.2805178578306]}, "properties": {"status": "open", "description": "Hot Dogs", "geo_localarea": "Downtown", "location": "East Side of 800 Granville St - 30 Metres North of Smithe St", "key": "GM05", "vendor_type": "vendor_food"}},{"type": "Feature", "geometry": {"type": "Point", "coordinates": [-123.118426844134, 49.2824701485478]}, "properties": {"status": "open", "description": "Hot Dogs", "geo_localarea": "Downtown", "location": "West Side of 700 Granville St - 5 Metres South of W Georgia St", "key": "GM18", "vendor_type": "vendor_food"}},{"type": "Feature", "geometry": {"type": "Point", "coordinates": [-123.119863220163, 49.2834680335098]}, "properties": {"status": "open", "description": "Hot Dogs", "geo_localarea": "Downtown", "location": "South Side of 800 W Georgia St - 55 Metres West of Howe St", "key": "DT38", "vendor_type": "vendor_food"}},{"type": "Feature", "geometry": {"type": "Point", "coordinates": [-123.1170317349, 49.2098916792662]}, "properties": {"status": "open", "description": "Hot Dogs", "geo_localarea": "Marpole", "location": "East Side of 8400 Cambie St - 75 Metres South of SW Marine Dr", "key": "OD12", "vendor_type": "vendor_food"}},{"type": "Feature", "geometry": {"type": "Point", "coordinates": [-123.123569702796, 49.2839220206803]}, "properties": {"status": "open", "description": "Hot Dogs", "geo_localarea": "West End", "location": "North Side of 1000 Robson St", "key": "DT79", "business_name": "Ali's Hot Dogs", "vendor_type": "vendor_food"}},{"type": "Feature", "geometry": {"type": "Point", "coordinates": [-123.112870852909, 49.2872354621354]}, "properties": {"status": "open", "description": "Dim Sum", "geo_localarea": "Downtown", "location": "East Side of 200 Howe St - 100 Metres North of W Cordova St", "key": "DT54", "business_name": "Dim Sum Express", "vendor_type": "vendor_food"}},{"type": "Feature", "geometry": {"type": "Point", "coordinates": [-123.101569148691, 49.2584746760419]}, "properties": {"status": "open", "description": "Hot Dogs", "geo_localarea": "Mount Pleasant", "location": "West Side of 2900 Main St - 20 Metres North of E 14th Ave", "key": "OD18", "business_name": "Dog Meister", "vendor_type": "vendor_food"}},{"type": "Feature", "geometry": {"type": "Point", "coordinates": [-123.118453, 49.288672]}, "properties": {"status": "open", "description": "Local Meats and Seafood", "geo_localarea": "Downtown", "location": "Authorised Parking Meter - Thurlow St at W Cordova St", "key": "C9", "business_name": "Feastro - The Rolling Bistro", "vendor_type": "vendor_food"}},{"type": "Feature", "geometry": {"type": "Point", "coordinates": [-123.120345228347, 49.2824386635302]}, "properties": {"status": "open", "description": "Local Meats and Seafood", "geo_localarea": "Downtown", "location": "Authorised Parking Meter West Side of 700 Howe St", "key": "C16", "business_name": "Feastro The Rolling Bistro", "vendor_type": "vendor_food"}},{"type": "Feature", "geometry": {"type": "Point", "coordinates": [-123.124363670916, 49.2824199268397]}, "properties": {"status": "open", "description": "Hot Dogs", "geo_localarea": "West End", "location": "West Side of 800 Burrard St - 2.5 Metres North of Smithe St", "key": "DT52", "business_name": "Japadog", "vendor_type": "vendor_food"}},{"type": "Feature", "geometry": {"type": "Point", "coordinates": [-123.144697763958, 49.2896827395781]}, "properties": {"status": "open", "description": "Lemonade and Crepes", "geo_localarea": "West End", "location": "South Side of 2000 Beach Av - 30 metres West of Chilco St", "key": "EB03", "business_name": "Lemon Sea", "vendor_type": "vendor_food"}},{"type": "Feature", "geometry": {"type": "Point", "coordinates": [-123.11975, 49.285658]}, "properties": {"status": "open", "description": "Kosher Israeli", "geo_localarea": "Downtown", "location": "Authorised Parking Meter South Side of 1000 Dunsmuir St", "key": "C11", "business_name": "Meet to Eat", "vendor_type": "vendor_food"}},{"type": "Feature", "geometry": {"type": "Point", "coordinates": [-123.120079603127, 49.2812971848513]}, "properties": {"status": "open", "description": "Potato Based Dishes", "geo_localarea": "Downtown", "location": "West Side of 800 Granville St - 6 Metres South of Robson St", "key": "GM10", "business_name": "Potato Tornado", "vendor_type": "vendor_food"}},{"type": "Feature", "geometry": {"type": "Point", "coordinates": [-123.106548732322, 49.271307845851]}, "properties": {"status": "open", "description": "Asian Fusion", "geo_localarea": "Mount Pleasant", "location": "Authorised Parking Meter East Side of 1600 Manitoba St", "key": "C25", "business_name": "Roaming Dragon", "vendor_type": "vendor_food"}},{"type": "Feature", "geometry": {"type": "Point", "coordinates": [-123.11850128812, 49.2825721404215]}, "properties": {"status": "open", "description": "Indian Cuisine", "geo_localarea": "Downtown", "location": "South Side of 700 W Georgia St - 20 Metres West of Granville St", "key": "GM21", "business_name": "Soho Road Naan Kebab", "vendor_type": "vendor_food"}},{"type": "Feature", "geometry": {"type": "Point", "coordinates": [-123.122623764676, 49.2855321149763]}, "properties": {"status": "open", "description": "Thai Cuisine", "geo_localarea": "Downtown", "location": "Authorised Parking Meter North Side of 1000 W Georgia St", "key": "C26", "business_name": "Super Thai", "vendor_type": "vendor_food"}},{"type": "Feature", "geometry": {"type": "Point", "coordinates": [-123.12269699834, 49.2831023503318]}, "properties": {"status": "open", "description": "Juice and Smoothies", "geo_localarea": "Downtown", "location": "South Side of 900 Robson - 6 Metres East of Burrard St", "key": "DT41", "business_name": "The Juice Truck", "vendor_type": "vendor_food"}},{"type": "Feature", "geometry": {"type": "Point", "coordinates": [-123.109452, 49.283032]}, "properties": {"status": "open", "description": "Juice and Smoothies", "geo_localarea": "Downtown", "location": "Authorised Parking Meter West Side of 300 Cambie St", "key": "C6", "business_name": "The Juice Truck", "vendor_type": "vendor_food"}},{"type": "Feature", "geometry": {"type": "Point", "coordinates": [-123.122135785725, 49.2827533646573]}, "properties": {"status": "open", "description": "Sandwiches", "geo_localarea": "Downtown", "location": "South Side of 900 Robson St - 16 Metres West of Hornby St", "key": "DT42", "business_name": "Cheesey Does It", "vendor_type": "vendor_food"}},{"type": "Feature", "geometry": {"type": "Point", "coordinates": [-123.115237361117, 49.2808012429435]}, "properties": {"status": "open", "description": "Drinks and Smoothies", "geo_localarea": "Downtown", "location": "North Side of W Georgia St - 10 Metres West of Homer St", "key": "DT05", "business_name": "Mr. Camaron", "vendor_type": "vendor_food"}},{"type": "Feature", "geometry": {"type": "Point", "coordinates": [-123.11719039448, 49.2830199658932]}, "properties": {"status": "open", "description": "Middle Eastern Cuisine", "geo_localarea": "Downtown", "location": "East Side of 600 Granville St - 80 Metres North of W Georgia St", "key": "GM16", "business_name": "Mr. Shawarma", "vendor_type": "vendor_food"}},{"type": "Feature", "geometry": {"type": "Point", "coordinates": [-123.112040050999, 49.2787463289182]}, "properties": {"status": "open", "description": "Hot Dogs", "geo_localarea": "Downtown", "location": "East Side of 600 Beatty St - 6 Metres North of West Georgia St", "key": "DT01", "business_name": "Mr. Tube Steak", "vendor_type": "vendor_food"}},{"type": "Feature", "geometry": {"type": "Point", "coordinates": [-123.139739, 49.286003]}, "properties": {"status": "open", "description": "Fruit Shakes, Smoothies and Juices", "geo_localarea": "West End", "location": "Authorised Parking Meter North Side of 1600 Davie St", "key": "EB06", "business_name": "San Juan Family Farm", "vendor_type": "vendor_food"}},{"type": "Feature", "geometry": {"type": "Point", "coordinates": [-123.120529317155, 49.2823011792112]}, "properties": {"status": "open", "description": "Tacos and Burritos", "geo_localarea": "Downtown", "location": "Authorised Parking Meter West Side of 700 Howe St", "key": "C5", "business_name": "Tacofino", "vendor_type": "vendor_food"}},{"type": "Feature", "geometry": {"type": "Point", "coordinates": [-123.143229444439, 49.2887284881581]}, "properties": {"status": "open", "description": "Hot Dogs", "geo_localarea": "West End", "location": "South Side of 1900 Beach Ave - 17 Metres West of Gilford St", "key": "EB05", "vendor_type": "vendor_food"}},{"type": "Feature", "geometry": {"type": "Point", "coordinates": [-123.118235028068, 49.282319592487]}, "properties": {"status": "open", "description": "Hot Dogs", "geo_localarea": "Downtown", "location": "East side of 700 Granville St - 6 Metres South W Georgia St", "key": "GM03", "vendor_type": "vendor_food"}},{"type": "Feature", "geometry": {"type": "Point", "coordinates": [-123.106609298224, 49.2839891744052]}, "properties": {"status": "open", "description": "Hot Dogs", "geo_localarea": "Downtown", "location": "North Side of 100 Water St - 10 Metres West of Abbott St", "key": "GT04", "vendor_type": "vendor_food"}},{"type": "Feature", "geometry": {"type": "Point", "coordinates": [-123.109160409686, 49.2844467906592]}, "properties": {"status": "open", "description": "Hot Dogs", "geo_localarea": "Downtown", "location": "North Side of 300 Water St - 17 Metres West of Cambie St", "key": "GT05", "vendor_type": "vendor_food"}},{"type": "Feature", "geometry": {"type": "Point", "coordinates": [-123.110258929798, 49.2798897004659]}, "properties": {"status": "open", "description": "Hot Dogs", "geo_localarea": "Downtown", "location": "North Side of Dunsmuir St - 6 Metres East of Beatty St", "key": "DT02", "vendor_type": "vendor_food"}},{"type": "Feature", "geometry": {"type": "Point", "coordinates": [-123.122731856953, 49.283488792081]}, "properties": {"status": "open", "description": "Hot Dogs", "geo_localarea": "West End", "location": "West Side of 700 Burrard St - 15 Metres North of Robson St", "key": "DT37", "vendor_type": "vendor_food"}},{"type": "Feature", "geometry": {"type": "Point", "coordinates": [-123.122520505306, 49.2832224976244]}, "properties": {"status": "open", "description": "Hot Dogs", "geo_localarea": "Downtown", "location": "North Side of 900 Robson St - 6 Metres East of Burrard St", "key": "DT13", "vendor_type": "vendor_food"}},{"type": "Feature", "geometry": {"type": "Point", "coordinates": [-123.118591524118, 49.2823626147279]}, "properties": {"status": "open", "description": "Seafood and Western", "geo_localarea": "Downtown", "location": "West Side of 700 Granville St - South of W Georgia St", "key": "GM13", "business_name": "BBKB Kaboom Box", "vendor_type": "vendor_food"}},{"type": "Feature", "geometry": {"type": "Point", "coordinates": [-123.122093113148, 49.2851936823208]}, "properties": {"status": "open", "description": "Vegan Cuisine", "geo_localarea": "Downtown", "location": "Authorised Parking Meter - North Side of 1000 W Georgia St", "key": "C15", "business_name": "Bandidas", "vendor_type": "vendor_food"}},{"type": "Feature", "geometry": {"type": "Point", "coordinates": [-123.11684601808, 49.2819872240752]}, "properties": {"status": "open", "description": "Brasilian Cuisine", "geo_localarea": "Downtown", "location": "Authorised Parking Meter - East Side of 600 Seymour St", "key": "C14", "business_name": "Brasilian Roots", "vendor_type": "vendor_food"}},{"type": "Feature", "geometry": {"type": "Point", "coordinates": [-123.121122, 49.282109]}, "properties": {"status": "open", "description": "Variety Menu", "geo_localarea": "Downtown", "location": "South Side of 800 Robson St- 13 Metres West of Howe St", "key": "DT74", "business_name": "Commissary Connect", "vendor_type": "vendor_food"}},{"type": "Feature", "geometry": {"type": "Point", "coordinates": [-123.118581094106, 49.2849051031527]}, "properties": {"status": "open", "description": "Variety Menu", "geo_localarea": "Downtown", "location": "West Side of 600 Hornby St - 6 Metres South of Dunsmuir St", "key": "DT70", "business_name": "Commissary Connect", "vendor_type": "vendor_food"}},{"type": "Feature", "geometry": {"type": "Point", "coordinates": [-123.120309650843, 49.2835087650275]}, "properties": {"status": "open", "description": "Variety Menu", "geo_localarea": "Downtown", "location": "East Side of 700 Hornby St - 22 metres South of W Georgia St", "key": "DT59", "business_name": "Commissary Connect", "vendor_type": "vendor_food"}},{"type": "Feature", "geometry": {"type": "Point", "coordinates": [-123.11746613169, 49.2828190132516]}, "properties": {"status": "open", "description": "Chowders and Soups", "geo_localarea": "Downtown", "location": "East Side of 600 Granville St - 30 Metres North of W Georgia St", "key": "GM20", "business_name": "Crab Park Chowdery", "vendor_type": "vendor_food"}},{"type": "Feature", "geometry": {"type": "Point", "coordinates": [-123.12044362671, 49.2823678347768]}, "properties": {"status": "open", "description": "Korean", "geo_localarea": "Downtown", "location": "Authorised Parking Meter West Side of 700 Howe St", "key": "C13", "business_name": "Disco Cheetah", "vendor_type": "vendor_food"}},{"type": "Feature", "geometry": {"type": "Point", "coordinates": [-123.12109855916, 49.2819285670653]}, "properties": {"status": "open", "description": "Wraps and Sandwiches", "geo_localarea": "Downtown", "location": "West Side of 800 Howe St - 5 Metres South of Robson St", "key": "DT49", "business_name": "Eat Chicken Wraps", "vendor_type": "vendor_food"}},{"type": "Feature", "geometry": {"type": "Point", "coordinates": [-123.114022, 49.286811]}, "properties": {"status": "open", "description": "International Comfort Foods", "geo_localarea": "Downtown", "location": "Authorised Parking Meter - North Side of 800 W Cordova St", "key": "C23", "business_name": "Fat Duck Mobile Eatery", "vendor_type": "vendor_food"}},{"type": "Feature", "geometry": {"type": "Point", "coordinates": [-123.138921554365, 49.2634838294021]}, "properties": {"status": "open", "description": "Hot Dogs", "geo_localarea": "Fairview", "location": "South Side 1500 West Broadway - 6 Metres West of Granville St", "key": "OD03", "business_name": "Holy Smokes", "vendor_type": "vendor_food"}},{"type": "Feature", "geometry": {"type": "Point", "coordinates": [-123.112525974406, 49.2859060939777]}, "properties": {"status": "open", "description": "Hot Dogs", "geo_localarea": "Downtown", "location": "North Side of 600 W Cordova St - 6 Metres East of Granville St", "key": "DT69", "business_name": "Japadog", "vendor_type": "vendor_food"}},{"type": "Feature", "geometry": {"type": "Point", "coordinates": [-123.068886047286, 49.262216537032]}, "properties": {"status": "open", "description": "Tacos and Fresh Salsas", "geo_localarea": "Kensington-Cedar Cottage", "location": "South Side of 1700 E Broadway", "key": "OD06", "business_name": "La Bomba Taqueria", "vendor_type": "vendor_food"}},{"type": "Feature", "geometry": {"type": "Point", "coordinates": [-123.14250504093, 49.287324013553]}, "properties": {"status": "open", "description": "Hot Dogs", "geo_localarea": "West End", "location": "South Side of 1800 Beach Av - East of Davie St", "key": "EB01", "business_name": "Mac BBQ", "vendor_type": "vendor_food"}},{"type": "Feature", "geometry": {"type": "Point", "coordinates": [-123.119611425531, 49.2832896022047]}, "properties": {"status": "open", "description": "Middle Eastern Cuisine", "geo_localarea": "Downtown", "location": "South Side of 800 W Georgia St - 30 Metres West of Howe St", "key": "DT64", "business_name": "Marimba", "vendor_type": "vendor_food"}},{"type": "Feature", "geometry": {"type": "Point", "coordinates": [-123.115997593018, 49.283807299327]}, "properties": {"status": "open", "description": "Kebabs", "geo_localarea": "Downtown", "location": "East Side of 500 Granville St - 10 Metres North of Dunsmuir St", "key": "GM17", "business_name": "Master Chef's Kebab House", "vendor_type": "vendor_food"}},{"type": "Feature", "geometry": {"type": "Point", "coordinates": [-123.129163571627, 49.2792760359058]}, "properties": {"status": "open", "description": "Kosher Israeli", "geo_localarea": "West End", "location": "West Side of 1100 Burrard St - 10 Metres North of Davie St", "key": "DT15", "business_name": "Meet to Eat", "vendor_type": "vendor_food"}},{"type": "Feature", "geometry": {"type": "Point", "coordinates": [-123.121307872222, 49.2822753151292]}, "properties": {"status": "open", "description": "Western", "geo_localarea": "Downtown", "location": "South Side of 800 Robson St  -30 Metres West of Howe St", "key": "DT39", "business_name": "Mo's Hot Dog Plus", "vendor_type": "vendor_food"}},{"type": "Feature", "geometry": {"type": "Point", "coordinates": [-123.120163, 49.285361]}, "properties": {"status": "open", "description": "Shawarma", "geo_localarea": "Downtown", "location": "Authorised Parking Meter - North Side of 1000 Melville St", "key": "C3", "business_name": "Mr. Shawarma", "vendor_type": "vendor_food"}},{"type": "Feature", "geometry": {"type": "Point", "coordinates": [-123.120684903216, 49.2822094865348]}, "properties": {"status": "open", "description": "Grilled Cheese and Soups", "geo_localarea": "Downtown", "location": "Authorised Parking Meter -West Side of 700 Howe St", "key": "C10", "business_name": "Mum's Grilled Cheese Truck", "vendor_type": "vendor_food"}},{"type": "Feature", "geometry": {"type": "Point", "coordinates": [-123.122918691376, 49.2830967068971]}, "properties": {"status": "open", "description": "Asian Fusion", "geo_localarea": "Downtown", "location": "Authorised Parking Meter East Side of 800 Burrard St", "key": "C7", "business_name": "Roaming Dragon", "vendor_type": "vendor_food"}},{"type": "Feature", "geometry": {"type": "Point", "coordinates": [-123.121070522118, 49.2822804045159]}, "properties": {"status": "open", "description": "Thai Cuisine", "geo_localarea": "Downtown", "location": "North Side of 800 Robson St - 30 Metres West of Howe St", "key": "DT36", "business_name": "Suassy Thai", "vendor_type": "vendor_food"}},{"type": "Feature", "geometry": {"type": "Point", "coordinates": [-123.119002, 49.286031]}, "properties": {"status": "open", "description": "Tacos and Burritos", "geo_localarea": "Downtown", "location": "Authorised Parking Meter West Side 500 Burrard St", "key": "C4", "business_name": "Tacofino White Lightening", "vendor_type": "vendor_food"}},{"type": "Feature", "geometry": {"type": "Point", "coordinates": [-123.118158491193, 49.2865384000861]}, "properties": {"status": "open", "description": "Fried Chicken Sandwiches", "geo_localarea": "Downtown", "location": "Authorised Parking Meter West Side of 500 Burrard St", "key": "C20", "business_name": "The Fryinig Pan", "vendor_type": "vendor_food"}},{"type": "Feature", "geometry": {"type": "Point", "coordinates": [-123.119362, 49.287858]}, "properties": {"status": "open", "description": "Central European Desserts", "geo_localarea": "Downtown", "location": "Authorised Parking Meter - 1000 W Hastings St", "key": "C22", "business_name": "The Praguery", "vendor_type": "vendor_food"}},{"type": "Feature", "geometry": {"type": "Point", "coordinates": [-123.119509663147, 49.2880164317887]}, "properties": {"status": "open", "description": "Caribbean", "geo_localarea": "Downtown", "location": "Authorised Parking Meter - East Side of Thurlow St - North of W Hastings St", "key": "C19", "business_name": "The Reef", "vendor_type": "vendor_food"}},{"type": "Feature", "geometry": {"type": "Point", "coordinates": [-123.122660630478, 49.2830840428154]}, "properties": {"status": "open", "description": "Hot Dogs", "geo_localarea": "Downtown", "location": "South Side of 900 Robson St - 12 Metres East of Burrard St", "key": "DT06", "business_name": "Van Dog", "vendor_type": "vendor_food"}},{"type": "Feature", "geometry": {"type": "Point", "coordinates": [-123.118066770004, 49.282314404317]}, "properties": {"status": "open", "description": "Western", "geo_localarea": "Downtown", "location": "South Side of 600 W Georgia St - 6 Metres East of Granville St", "key": "GM04", "business_name": "Van Dog", "vendor_type": "vendor_food"}}]}